[
  { "code": "5001", "name_th": "เมืองเชียงใหม่", "name_en": "Mueang Chiang Mai", "lat": 18.7883, "lon": 98.9853 },
  { "code": "5002", "name_th": "จอมทอง", "name_en": "Chom Thong", "lat": 18.4200, "lon": 98.6717 },
  { "code": "5003", "name_th": "แม่แจ่ม", "name_en": "Mae Chaem", "lat": 18.4972, "lon": 98.3728 },
  { "code": "5004", "name_th": "เชียงดาว", "name_en": "Chiang Dao", "lat": 19.3614, "lon": 98.9669 },
  { "code": "5005", "name_th": "ดอยสะเก็ด", "name_en": "Doi Saket", "lat": 18.8764, "lon": 99.1592 },
  { "code": "5006", "name_th": "แม่แตง", "name_en": "Mae Taeng", "lat": 19.1175, "lon": 98.9364 },
  { "code": "5007", "name_th": "แม่ริม", "name_en": "Mae Rim", "lat": 18.9147, "lon": 98.9486 },
  { "code": "5008", "name_th": "สะเมิง", "name_en": "Samoeng", "lat": 18.8706, "lon": 98.6614 },
  { "code": "5009", "name_th": "ฝาง", "name_en": "Fang", "lat": 19.9131, "lon": 99.2078 },
  { "code": "5010", "name_th": "แม่อาย", "name_en": "Mae Ai", "lat": 20.0300, "lon": 99.1508 },
  { "code": "5011", "name_th": "พร้าว", "name_en": "Phrao", "lat": 19.3639, "lon": 99.2086 },
  { "code": "5012", "name_th": "สันป่าตอง", "name_en": "San Pa Tong", "lat": 18.6228, "lon": 98.8453 },
  { "code": "5013", "name_th": "สันกำแพง", "name_en": "San Kamphaeng", "lat": 18.7456, "lon": 99.1250 },
  { "code": "5014", "name_th": "สันทราย", "name_en": "San Sai", "lat": 18.8494, "lon": 99.0361 },
  { "code": "5015", "name_th": "หางดง", "name_en": "Hang Dong", "lat": 18.6939, "lon": 98.9300 },
  { "code": "5016", "name_th": "ฮอด", "name_en": "Hot", "lat": 18.1908, "lon": 98.5964 },
  { "code": "5017", "name_th": "ดอยเต่า", "name_en": "Doi Tao", "lat": 17.9306, "lon": 98.7069 },
  { "code": "5018", "name_th": "อมก๋อย", "name_en": "Omkoi", "lat": 17.7928, "lon": 98.3325 },
  { "code": "5019", "name_th": "สารภี", "name_en": "Saraphi", "lat": 18.7294, "lon": 99.0250 },
  { "code": "5020", "name_th": "เวียงแหง", "name_en": "Wiang Haeng", "lat": 19.5150, "lon": 98.6433 },
  { "code": "5021", "name_th": "ไชยปราการ", "name_en": "Chai Prakan", "lat": 19.7319, "lon": 99.0703 },
  { "code": "5022", "name_th": "แม่วาง", "name_en": "Mae Wang", "lat": 18.5694, "lon": 98.7128 },
  { "code": "5023", "name_th": "แม่ออน", "name_en": "Mae On", "lat": 18.7961, "lon": 99.2675 },
  { "code": "5024", "name_th": "ดอยหล่อ", "name_en": "Doi Lo", "lat": 18.5033, "lon": 98.7750 },
  { "code": "5025", "name_th": "กัลยาณิวัฒนา", "name_en": "Galyani Vadhana", "lat": 19.0622, "lon": 98.3275 }
]
